[
  {
    "id": "mum-exam_centre-11",
    "name": "Aditya Birla World Academy",
    "type": "exam_centre",
    "city": "mumbai",
    "lat": 18.9722,
    "lng": 72.8203,
    "address": "Vastu Shilp, JD Road Annexe, Gamadia Colony, Tardeo, Mumbai 400034",
    "gmaps_link": "https://maps.google.com/?q=18.9722,72.8203",
    "added_by": "anaydhawan",
    "exam": "SAT",
    "valid_till": "2026-11-07"
  },
  {
    "id": "mum-exam_centre-12",
    "name": "American School of Bombay (BKC Campus)",
    "type": "exam_centre",
    "city": "mumbai",
    "lat": 19.0677,
    "lng": 72.8707,
    "address": "SF2, G Block, Bandra Kurla Complex, Bandra East, Mumbai 400051",
    "gmaps_link": "https://maps.google.com/?q=19.0677,72.8707",
    "added_by": "anaydhawan",
    "exam": "SAT",
    "valid_till": "2026-11-07"
  },
  {
    "id": "mum-exam_centre-13",
    "name": "Cathedral and John Connon School",
    "type": "exam_centre",
    "city": "mumbai",
    "lat": 18.9361,
    "lng": 72.8326,
    "address": "6, Amit Keshav Nayak Marg, Fort, Mumbai 400001",
    "gmaps_link": "https://maps.google.com/?q=18.9361,72.8326",
    "added_by": "anaydhawan",
    "exam": "SAT",
    "valid_till": "2026-11-07"
  },
  {
    "id": "mum-exam_centre-14",
    "name": "Don Bosco International School",
    "type": "exam_centre",
    "city": "mumbai",
    "lat": 19.0263,
    "lng": 72.8572,
    "address": "Nathalal Parekh Marg, Matunga East, Mumbai 400019",
    "gmaps_link": "https://maps.google.com/?q=19.0263,72.8572",
    "added_by": "anaydhawan",
    "exam": "SAT",
    "valid_till": "2026-11-07"
  },
  {
    "id": "mum-exam_centre-15",
    "name": "B D Somani International School",
    "type": "exam_centre",
    "city": "mumbai",
    "lat": 18.9161,
    "lng": 72.8199,
    "address": "625, G.D. Somani Marg, Cuffe Parade, Mumbai 400005",
    "gmaps_link": "https://maps.google.com/?q=18.9161,72.8199",
    "added_by": "anaydhawan",
    "exam": "SAT",
    "valid_till": "2026-11-07"
  },
  {
    "id": "mum-exam_centre-16",
    "name": "Anjuman Islam High School",
    "type": "exam_centre",
    "city": "mumbai",
    "lat": 18.9424,
    "lng": 72.8342,
    "address": "Dr Dadabhai Naoroji Road, Fort, Mumbai 400001",
    "gmaps_link": "https://maps.google.com/?q=18.9424,72.8342",
    "added_by": "anaydhawan",
    "exam": "SAT",
    "valid_till": "2026-11-07"
  },
  {
    "id": "mum-exam_centre-17",
    "name": "Bombay Teachers' Training College",
    "type": "exam_centre",
    "city": "mumbai",
    "lat": 18.9246,
    "lng": 72.8325,
    "address": "Mahakavi Bhushan Road, Colaba, Mumbai 400001",
    "gmaps_link": "https://maps.google.com/?q=18.9246,72.8325",
    "added_by": "anaydhawan",
    "exam": "SAT",
    "valid_till": "2026-11-07"
  },
  {
    "id": "mum-exam_centre-18",
    "name": "Goethe-Institut / Max Mueller Bhavan Mumbai",
    "type": "exam_centre",
    "city": "mumbai",
    "lat": 18.9979,
    "lng": 72.8227,
    "address": "8th Floor, Urmi Estate, 95 Ganpatrao Kadam Marg, Lower Parel West, Mumbai 400013",
    "gmaps_link": "https://maps.google.com/?q=18.9979,72.8227",
    "added_by": "anaydhawan",
    "exam": "Goethe-Zertifikat (A1-C2)"
  },
  {
    "id": "pun-exam_centre-01",
    "name": "Goethe-Institut / Max Mueller Bhavan Pune",
    "type": "exam_centre",
    "city": "pune",
    "lat": 18.5384,
    "lng": 73.8772,
    "address": "14/3-B, Boat Club Road, Pune 411001",
    "gmaps_link": "https://maps.google.com/?q=18.5384,73.8772",
    "added_by": "anaydhawan",
    "exam": "Goethe-Zertifikat (A1-C2)"
  }
]
