[
  {
    "id": "mum-imp_locations-01",
    "name": "Passport Seva Kendra - Lower Parel",
    "type": "imp_locations",
    "city": "mumbai",
    "lat": 18.997,
    "lng": 72.83,
    "address": "Lower Parel, Mumbai 400013",
    "gmaps_link": "https://maps.google.com/?q=18.9970,72.8300",
    "added_by": "anaydhawan"
  },
  {
    "id": "mum-imp_locations-02",
    "name": "St Xavier's College (Exam Hall)",
    "type": "imp_locations",
    "city": "mumbai",
    "lat": 18.9674,
    "lng": 72.8348,
    "address": "Fort, Mumbai 400001",
    "gmaps_link": "https://maps.google.com/?q=18.9674,72.8348",
    "added_by": "anaydhawan"
  },
  {
    "id": "mum-imp_locations-03",
    "name": "Central Post Office - Fort",
    "type": "imp_locations",
    "city": "mumbai",
    "lat": 18.965,
    "lng": 72.8355,
    "address": "Fort, Mumbai 400001",
    "gmaps_link": "https://maps.google.com/?q=18.9650,72.8355",
    "added_by": "anaydhawan"
  },
  {
    "id": "mum-imp_locations-04",
    "name": "HDFC Bank - Dadar",
    "type": "imp_locations",
    "city": "mumbai",
    "lat": 19.0176,
    "lng": 72.8479,
    "address": "Dadar West, Mumbai 400028",
    "gmaps_link": "https://maps.google.com/?q=19.0176,72.8479",
    "added_by": "anaydhawan"
  },
  {
    "id": "mum-imp_locations-07",
    "name": "ICICI Bank - Andheri",
    "type": "imp_locations",
    "city": "mumbai",
    "lat": 19.1197,
    "lng": 72.8468,
    "address": "Andheri East, Mumbai 400072",
    "gmaps_link": "https://maps.google.com/?q=19.1197,72.8468",
    "added_by": "anaydhawan"
  },
  {
    "id": "thn-imp_locations-01",
    "name": "Passport Seva Kendra - Thane",
    "type": "imp_locations",
    "city": "thane",
    "lat": 19.1972,
    "lng": 72.9722,
    "address": "Thane West, Thane 400601",
    "gmaps_link": "https://maps.google.com/?q=19.1972,72.9722",
    "added_by": "anaydhawan"
  },
  {
    "id": "thn-imp_locations-02",
    "name": "Thane Head Post Office",
    "type": "imp_locations",
    "city": "thane",
    "lat": 19.2183,
    "lng": 72.9781,
    "address": "Thane West, Thane 400601",
    "gmaps_link": "https://maps.google.com/?q=19.2183,72.9781",
    "added_by": "anaydhawan"
  }
]
