[
  {
    "id": "mum-stationery-01",
    "name": "Crossword Stationery - Dadar",
    "type": "stationery",
    "city": "mumbai",
    "lat": 19.0186,
    "lng": 72.8423,
    "address": "Dadar West, Mumbai 400028",
    "gmaps_link": "https://maps.google.com/?q=19.0186,72.8423",
    "added_by": "anaydhawan"
  },
  {
    "id": "mum-stationery-02",
    "name": "Landmark Stationery",
    "type": "stationery",
    "city": "mumbai",
    "lat": 19.0596,
    "lng": 72.8295,
    "address": "Bandra West, Mumbai 400050",
    "gmaps_link": "https://maps.google.com/?q=19.0596,72.8295",
    "added_by": "anaydhawan"
  },
  {
    "id": "thn-stationery-01",
    "name": "Crossword Stationery - Thane",
    "type": "stationery",
    "city": "thane",
    "lat": 19.2201,
    "lng": 72.9789,
    "address": "Ghodbunder Road, Thane West, Thane 400610",
    "gmaps_link": "https://maps.google.com/?q=19.2201,72.9789",
    "added_by": "anaydhawan"
  },
  {
    "id": "nvm-stationery-01",
    "name": "Vashi Stationery Mart",
    "type": "stationery",
    "city": "navi_mumbai",
    "lat": 19.0771,
    "lng": 72.9986,
    "address": "Sector 17, Vashi, Navi Mumbai 400703",
    "gmaps_link": "https://maps.google.com/?q=19.0771,72.9986",
    "added_by": "anaydhawan"
  },
  {
    "id": "nvm-stationery-02",
    "name": "Nerul Stationery & Print",
    "type": "stationery",
    "city": "navi_mumbai",
    "lat": 19.035,
    "lng": 73.02,
    "address": "Nerul, Navi Mumbai 400706",
    "gmaps_link": "https://maps.google.com/?q=19.0350,73.0200",
    "added_by": "anaydhawan"
  }
]
